[
  { "name": "Ubykh", "language_family": "Northwest Caucasian", "country": "Turkey", "region": "Western Asia", "speakers": 0, "status": "Extinct", "latitude": 41.0000, "longitude": 29.0000 },
  { "name": "Eyak", "language_family": "Na-Dene", "country": "United States", "region": "North America", "speakers": 0, "status": "Extinct", "latitude": 60.5000, "longitude": -145.7500 },
  { "name": "Bo (Andamanese)", "language_family": "Great Andamanese", "country": "India", "region": "South Asia", "speakers": 0, "status": "Extinct", "latitude": 12.5000, "longitude": 92.7000 },
  { "name": "Dalmatian", "language_family": "Indo-European", "country": "Croatia", "region": "Europe", "speakers": 0, "status": "Extinct", "latitude": 44.0000, "longitude": 15.5000 },
  { "name": "Wichita", "language_family": "Caddoan", "country": "United States", "region": "North America", "speakers": 0, "status": "Extinct", "latitude": 35.5170, "longitude": -98.0000 },
  { "name": "Catawba", "language_family": "Siouan", "country": "United States", "region": "North America", "speakers": 0, "status": "Extinct", "latitude": 34.9000, "longitude": -81.1000 },
  { "name": "Klallam", "language_family": "Salishan", "country": "United States", "region": "North America", "speakers": 0, "status": "Extinct", "latitude": 48.1000, "longitude": -123.4000 },
  { "name": "Akkala Sami", "language_family": "Uralic", "country": "Russia", "region": "Europe", "speakers": 0, "status": "Extinct", "latitude": 67.5000, "longitude": 30.5000 },
  { "name": "Kemi Sami", "language_family": "Uralic", "country": "Finland", "region": "Europe", "speakers": 0, "status": "Extinct", "latitude": 65.5000, "longitude": 25.5000 },
  { "name": "Resígaro", "language_family": "Arawakan", "country": "Peru", "region": "South America", "speakers": 0, "status": "Extinct", "latitude": -2.0000, "longitude": -73.5000 },
  { "name": "Yaghan", "language_family": "Language isolate", "country": "Chile", "region": "South America", "speakers": 1, "status": "Critically Endangered", "latitude": -54.9000, "longitude": -67.6200 },
  { "name": "Taushiro", "language_family": "Language isolate", "country": "Peru", "region": "South America", "speakers": 1, "status": "Critically Endangered", "latitude": -2.5000, "longitude": -75.5000 },
  { "name": "Ter Sami", "language_family": "Uralic", "country": "Russia", "region": "Europe", "speakers": 2, "status": "Critically Endangered", "latitude": 67.8000, "longitude": 38.5000 },
  { "name": "Lemerig", "language_family": "Austronesian", "country": "Vanuatu", "region": "Oceania", "speakers": 2, "status": "Critically Endangered", "latitude": -14.2500, "longitude": 167.4000 },
  { "name": "Votic", "language_family": "Uralic", "country": "Russia", "region": "Europe", "speakers": 10, "status": "Critically Endangered", "latitude": 59.7000, "longitude": 28.8000 },
  { "name": "Ingrian", "language_family": "Uralic", "country": "Russia", "region": "Europe", "speakers": 20, "status": "Critically Endangered", "latitude": 59.8000, "longitude": 29.5000 },
  { "name": "Pite Sami", "language_family": "Uralic", "country": "Sweden", "region": "Europe", "speakers": 20, "status": "Critically Endangered", "latitude": 66.0000, "longitude": 17.5000 },
  { "name": "Livonian", "language_family": "Uralic", "country": "Latvia", "region": "Europe", "speakers": 20, "status": "Critically Endangered", "latitude": 57.5000, "longitude": 22.5000 },
  { "name": "Kusunda", "language_family": "Language isolate", "country": "Nepal", "region": "South Asia", "speakers": 8, "status": "Critically Endangered", "latitude": 28.0000, "longitude": 82.5000 },
  { "name": "Ongota", "language_family": "Afro-Asiatic", "country": "Ethiopia", "region": "Africa", "speakers": 10, "status": "Critically Endangered", "latitude": 5.5000, "longitude": 37.0000 },
  { "name": "Dumi", "language_family": "Sino-Tibetan", "country": "Nepal", "region": "South Asia", "speakers": 8, "status": "Critically Endangered", "latitude": 27.5000, "longitude": 86.5000 },
  { "name": "Njerep", "language_family": "Niger-Congo", "country": "Nigeria", "region": "Africa", "speakers": 4, "status": "Critically Endangered", "latitude": 7.0000, "longitude": 11.0000 },
  { "name": "Haida", "language_family": "Haida (isolate)", "country": "United States", "region": "North America", "speakers": 50, "status": "Critically Endangered", "latitude": 55.0000, "longitude": -132.5000 },
  { "name": "Coeur d'Alene", "language_family": "Salishan", "country": "United States", "region": "North America", "speakers": 10, "status": "Critically Endangered", "latitude": 47.7000, "longitude": -116.8000 },
  { "name": "Quileute", "language_family": "Language isolate", "country": "United States", "region": "North America", "speakers": 10, "status": "Critically Endangered", "latitude": 47.9000, "longitude": -124.6000 },
  { "name": "Comanche", "language_family": "Uto-Aztecan", "country": "United States", "region": "North America", "speakers": 100, "status": "Critically Endangered", "latitude": 34.8000, "longitude": -98.5000 },
  { "name": "Kiowa", "language_family": "Kiowa-Tanoan", "country": "United States", "region": "North America", "speakers": 20, "status": "Critically Endangered", "latitude": 34.8000, "longitude": -98.6000 },
  { "name": "Quinault", "language_family": "Algic", "country": "United States", "region": "North America", "speakers": 10, "status": "Critically Endangered", "latitude": 47.3000, "longitude": -124.2000 },
  { "name": "Mandan", "language_family": "Siouan", "country": "United States", "region": "North America", "speakers": 6, "status": "Critically Endangered", "latitude": 47.2000, "longitude": -101.3000 },
  { "name": "Cayuga", "language_family": "Iroquoian", "country": "United States", "region": "North America", "speakers": 340, "status": "Critically Endangered", "latitude": 42.8000, "longitude": -76.7000 },
  { "name": "Onondaga", "language_family": "Iroquoian", "country": "United States", "region": "North America", "speakers": 100, "status": "Critically Endangered", "latitude": 43.1000, "longitude": -76.2000 },
  { "name": "Seneca", "language_family": "Iroquoian", "country": "United States", "region": "North America", "speakers": 100, "status": "Critically Endangered", "latitude": 42.6000, "longitude": -79.0000 },
  { "name": "Tuscarora", "language_family": "Iroquoian", "country": "United States", "region": "North America", "speakers": 10, "status": "Critically Endangered", "latitude": 43.0000, "longitude": -79.0500 },
  { "name": "Tongva", "language_family": "Uto-Aztecan", "country": "United States", "region": "North America", "speakers": 10, "status": "Critically Endangered", "latitude": 34.0000, "longitude": -118.2000 },
  { "name": "Lipan Apache", "language_family": "Athabaskan", "country": "United States", "region": "North America", "speakers": 20, "status": "Critically Endangered", "latitude": 29.5000, "longitude": -100.5000 },
  { "name": "Chamicuro", "language_family": "Arawakan", "country": "Peru", "region": "South America", "speakers": 8, "status": "Critically Endangered", "latitude": -5.9500, "longitude": -76.0000 },
  { "name": "Ts'ixa", "language_family": "Khoisan", "country": "Botswana", "region": "Africa", "speakers": 250, "status": "Critically Endangered", "latitude": -19.0000, "longitude": 23.0000 },
  { "name": "Ainu", "language_family": "Language isolate", "country": "Japan", "region": "East Asia", "speakers": 10, "status": "Critically Endangered", "latitude": 43.0000, "longitude": 144.0000 },
  { "name": "Wintu", "language_family": "Wintuan", "country": "United States", "region": "North America", "speakers": 5, "status": "Critically Endangered", "latitude": 40.5000, "longitude": -122.5000 },
  { "name": "Yokuts", "language_family": "Yokutsan", "country": "United States", "region": "North America", "speakers": 50, "status": "Critically Endangered", "latitude": 36.0000, "longitude": -119.5000 },
  { "name": "Tlingit", "language_family": "Na-Dene", "country": "United States", "region": "North America", "speakers": 500, "status": "Severely Endangered", "latitude": 57.5000, "longitude": -135.0000 },
  { "name": "Skolt Sami", "language_family": "Uralic", "country": "Finland", "region": "Europe", "speakers": 300, "status": "Severely Endangered", "latitude": 69.0000, "longitude": 28.0000 },
  { "name": "Inari Sami", "language_family": "Uralic", "country": "Finland", "region": "Europe", "speakers": 300, "status": "Severely Endangered", "latitude": 68.9000, "longitude": 27.5000 },
  { "name": "Southern Sami", "language_family": "Uralic", "country": "Norway", "region": "Europe", "speakers": 500, "status": "Severely Endangered", "latitude": 64.5000, "longitude": 16.5000 },
  { "name": "Karelian", "language_family": "Uralic", "country": "Russia", "region": "Europe", "speakers": 30000, "status": "Definitely Endangered", "latitude": 62.5000, "longitude": 31.0000 },
  { "name": "Makah", "language_family": "Wakashan", "country": "United States", "region": "North America", "speakers": 10, "status": "Severely Endangered", "latitude": 48.3700, "longitude": -124.6300 },
  { "name": "Lummi", "language_family": "Salishan", "country": "United States", "region": "North America", "speakers": 50, "status": "Severely Endangered", "latitude": 48.8000, "longitude": -122.6500 },
  { "name": "Yurok", "language_family": "Algic", "country": "United States", "region": "North America", "speakers": 300, "status": "Severely Endangered", "latitude": 41.5000, "longitude": -123.8000 },
  { "name": "Karuk", "language_family": "Language isolate", "country": "United States", "region": "North America", "speakers": 50, "status": "Severely Endangered", "latitude": 41.2000, "longitude": -123.5000 },
  { "name": "Lenape", "language_family": "Algic", "country": "United States", "region": "North America", "speakers": 10, "status": "Severely Endangered", "latitude": 40.0000, "longitude": -75.0000 },
  { "name": "Abenaki", "language_family": "Algic", "country": "United States", "region": "North America", "speakers": 300, "status": "Severely Endangered", "latitude": 44.5000, "longitude": -72.5000 },
  { "name": "Passamaquoddy", "language_family": "Algic", "country": "United States", "region": "North America", "speakers": 500, "status": "Severely Endangered", "latitude": 45.0000, "longitude": -67.3000 },
  { "name": "Chiricahua Apache", "language_family": "Athabaskan", "country": "United States", "region": "North America", "speakers": 130, "status": "Severely Endangered", "latitude": 32.5000, "longitude": -109.5000 },
  { "name": "Hidatsa", "language_family": "Siouan", "country": "United States", "region": "North America", "speakers": 400, "status": "Severely Endangered", "latitude": 47.8000, "longitude": -102.0000 },
  { "name": "Aramaic (Neo-Aramaic)", "language_family": "Afro-Asiatic", "country": "Iraq", "region": "Western Asia", "speakers": 300000, "status": "Definitely Endangered", "latitude": 36.5000, "longitude": 43.5000 },
  { "name": "Ume Sami", "language_family": "Uralic", "country": "Sweden", "region": "Europe", "speakers": 20, "status": "Severely Endangered", "latitude": 65.5000, "longitude": 16.0000 },
  { "name": "Breton", "language_family": "Indo-European", "country": "France", "region": "Europe", "speakers": 200000, "status": "Definitely Endangered", "latitude": 48.2000, "longitude": -3.5000 },
  { "name": "Occitan", "language_family": "Indo-European", "country": "France", "region": "Europe", "speakers": 200000, "status": "Definitely Endangered", "latitude": 43.5000, "longitude": 3.0000 },
  { "name": "Aragonese", "language_family": "Indo-European", "country": "Spain", "region": "Europe", "speakers": 10000, "status": "Definitely Endangered", "latitude": 42.5000, "longitude": -0.5000 },
  { "name": "Upper Sorbian", "language_family": "Indo-European", "country": "Germany", "region": "Europe", "speakers": 13000, "status": "Definitely Endangered", "latitude": 51.3000, "longitude": 14.3000 },
  { "name": "Lower Sorbian", "language_family": "Indo-European", "country": "Germany", "region": "Europe", "speakers": 7000, "status": "Definitely Endangered", "latitude": 51.7000, "longitude": 14.5000 },
  { "name": "Ladino (Judeo-Spanish)", "language_family": "Indo-European", "country": "Israel", "region": "Western Asia", "speakers": 60000, "status": "Definitely Endangered", "latitude": 31.7683, "longitude": 35.2137 },
  { "name": "Mohawk", "language_family": "Iroquoian", "country": "United States", "region": "North America", "speakers": 3500, "status": "Severely Endangered", "latitude": 43.0000, "longitude": -74.5000 },
  { "name": "Lakota", "language_family": "Siouan", "country": "United States", "region": "North America", "speakers": 2000, "status": "Definitely Endangered", "latitude": 43.5000, "longitude": -101.5000 },
  { "name": "Crow", "language_family": "Siouan", "country": "United States", "region": "North America", "speakers": 4000, "status": "Definitely Endangered", "latitude": 45.5000, "longitude": -107.5000 },
  { "name": "Hopi", "language_family": "Uto-Aztecan", "country": "United States", "region": "North America", "speakers": 5000, "status": "Definitely Endangered", "latitude": 35.8000, "longitude": -110.5000 },
  { "name": "Okanagan", "language_family": "Salishan", "country": "United States", "region": "North America", "speakers": 1200, "status": "Definitely Endangered", "latitude": 48.5000, "longitude": -119.5000 },
  { "name": "Western Apache", "language_family": "Athabaskan", "country": "United States", "region": "North America", "speakers": 12000, "status": "Definitely Endangered", "latitude": 34.0000, "longitude": -110.5000 },
  { "name": "Jicarilla Apache", "language_family": "Athabaskan", "country": "United States", "region": "North America", "speakers": 1000, "status": "Severely Endangered", "latitude": 36.5000, "longitude": -106.8000 },
  { "name": "Lule Sami", "language_family": "Uralic", "country": "Sweden", "region": "Europe", "speakers": 2000, "status": "Definitely Endangered", "latitude": 67.0000, "longitude": 17.0000 },
  { "name": "Scottish Gaelic", "language_family": "Indo-European", "country": "United Kingdom", "region": "Europe", "speakers": 60000, "status": "Definitely Endangered", "latitude": 57.5000, "longitude": -5.5000 },
  { "name": "Irish", "language_family": "Indo-European", "country": "Ireland", "region": "Europe", "speakers": 170000, "status": "Vulnerable", "latitude": 53.3000, "longitude": -9.0000 },
  { "name": "Welsh", "language_family": "Indo-European", "country": "United Kingdom", "region": "Europe", "speakers": 530000, "status": "Vulnerable", "latitude": 52.5000, "longitude": -3.7000 },
  { "name": "Manx", "language_family": "Indo-European", "country": "Isle of Man", "region": "Europe", "speakers": 2000, "status": "Vulnerable", "latitude": 54.2361, "longitude": -4.5481 },
  { "name": "Cornish", "language_family": "Indo-European", "country": "United Kingdom", "region": "Europe", "speakers": 500, "status": "Vulnerable", "latitude": 50.3000, "longitude": -5.1000 },
  { "name": "Zuni", "language_family": "Language isolate", "country": "United States", "region": "North America", "speakers": 9500, "status": "Vulnerable", "latitude": 35.0700, "longitude": -108.8500 },
  { "name": "Navajo", "language_family": "Athabaskan", "country": "United States", "region": "North America", "speakers": 170000, "status": "Vulnerable", "latitude": 36.5000, "longitude": -108.5000 },
  { "name": "Yiddish", "language_family": "Indo-European", "country": "United States", "region": "North America", "speakers": 600000, "status": "Definitely Endangered", "latitude": 40.7000, "longitude": -73.9000 },
  { "name": "Romani", "language_family": "Indo-European", "country": "Romania", "region": "Europe", "speakers": 3500000, "status": "Vulnerable", "latitude": 45.9432, "longitude": 24.9668 },
  { "name": "Friulian", "language_family": "Indo-European", "country": "Italy", "region": "Europe", "speakers": 600000, "status": "Vulnerable", "latitude": 46.1000, "longitude": 13.2000 },
  { "name": "Ladin", "language_family": "Indo-European", "country": "Italy", "region": "Europe", "speakers": 20000, "status": "Vulnerable", "latitude": 46.5000, "longitude": 11.8000 },
  { "name": "Kashubian", "language_family": "Indo-European", "country": "Poland", "region": "Europe", "speakers": 100000, "status": "Vulnerable", "latitude": 54.3000, "longitude": 17.8000 },
  { "name": "Asturian", "language_family": "Indo-European", "country": "Spain", "region": "Europe", "speakers": 100000, "status": "Definitely Endangered", "latitude": 43.3600, "longitude": -5.8500 },
  { "name": "Mapuche", "language_family": "Araucanian", "country": "Chile", "region": "South America", "speakers": 250000, "status": "Definitely Endangered", "latitude": -38.0000, "longitude": -72.0000 },
  { "name": "Guaraní (Paraguayan)", "language_family": "Tupian", "country": "Paraguay", "region": "South America", "speakers": 4600000, "status": "Vulnerable", "latitude": -23.0000, "longitude": -58.0000 },
  { "name": "Quechua (Chanka)", "language_family": "Quechuan", "country": "Peru", "region": "South America", "speakers": 900000, "status": "Definitely Endangered", "latitude": -14.0000, "longitude": -73.5000 },
  { "name": "Aymara", "language_family": "Aymaran", "country": "Bolivia", "region": "South America", "speakers": 1700000, "status": "Vulnerable", "latitude": -16.5000, "longitude": -68.0000 },
  { "name": "Tzeltal", "language_family": "Mayan", "country": "Mexico", "region": "North America", "speakers": 250000, "status": "Vulnerable", "latitude": 16.7500, "longitude": -92.0000 },
  { "name": "Mixtec", "language_family": "Oto-Manguean", "country": "Mexico", "region": "North America", "speakers": 300000, "status": "Vulnerable", "latitude": 17.5000, "longitude": -97.5000 },
  { "name": "Tigrinya", "language_family": "Afro-Asiatic", "country": "Eritrea", "region": "Africa", "speakers": 7000000, "status": "Vulnerable", "latitude": 15.3500, "longitude": 38.9333 },
  { "name": "Wolof", "language_family": "Niger-Congo", "country": "Senegal", "region": "Africa", "speakers": 5000000, "status": "Vulnerable", "latitude": 14.4974, "longitude": -14.4524 },
  { "name": "Khoekhoegowab", "language_family": "Khoisan", "country": "Namibia", "region": "Africa", "speakers": 250000, "status": "Definitely Endangered", "latitude": -22.0000, "longitude": 17.0000 },
  { "name": "N|uu", "language_family": "Khoisan", "country": "South Africa", "region": "Africa", "speakers": 3, "status": "Critically Endangered", "latitude": -29.3000, "longitude": 21.8000 },
  { "name": "Tuu (ǂKhomani)", "language_family": "Khoisan", "country": "South Africa", "region": "Africa", "speakers": 20, "status": "Critically Endangered", "latitude": -26.5000, "longitude": 20.5000 },
  { "name": "Mbyá Guaraní", "language_family": "Tupian", "country": "Argentina", "region": "South America", "speakers": 10000, "status": "Vulnerable", "latitude": -26.0000, "longitude": -54.0000 },
  { "name": "Tehuelche (Aónek'o Aién)", "language_family": "Chonan", "country": "Argentina", "region": "South America", "speakers": 5, "status": "Critically Endangered", "latitude": -48.0000, "longitude": -68.0000 },
  { "name": "Selkup", "language_family": "Uralic", "country": "Russia", "region": "Asia", "speakers": 1000, "status": "Severely Endangered", "latitude": 62.5000, "longitude": 78.0000 },
  { "name": "Nganasan", "language_family": "Uralic", "country": "Russia", "region": "Asia", "speakers": 200, "status": "Severely Endangered", "latitude": 72.0000, "longitude": 102.0000 },
  { "name": "Ket", "language_family": "Language isolate", "country": "Russia", "region": "Asia", "speakers": 200, "status": "Severely Endangered", "latitude": 63.0000, "longitude": 87.0000 },
  { "name": "Nivkh", "language_family": "Language isolate", "country": "Russia", "region": "Asia", "speakers": 200, "status": "Severely Endangered", "latitude": 52.5000, "longitude": 141.5000 },
  { "name": "Negidal", "language_family": "Tungusic", "country": "Russia", "region": "Asia", "speakers": 100, "status": "Critically Endangered", "latitude": 52.0000, "longitude": 139.5000 },
  { "name": "Oroch", "language_family": "Tungusic", "country": "Russia", "region": "Asia", "speakers": 100, "status": "Critically Endangered", "latitude": 47.5000, "longitude": 138.5000 },
  { "name": "Orok (Uilta)", "language_family": "Tungusic", "country": "Russia", "region": "Asia", "speakers": 50, "status": "Critically Endangered", "latitude": 51.0000, "longitude": 143.0000 },
  { "name": "Yupik (Siberian)", "language_family": "Eskimo-Aleut", "country": "Russia", "region": "Asia", "speakers": 300, "status": "Severely Endangered", "latitude": 64.5000, "longitude": -173.0000 }
]
